{"type":"FeatureCollection","totalFeatures":76,"features":[{"type":"Feature","id":"nhapkhau.1","geometry":{"type":"Point","coordinates":[-65.17049945247092,-35.39589983647762]},"geometry_name":"geom","properties":{"objectid":11,"name":"Argentina","country":"Argentina","english":"Argentina","continent":"South America","ma":60,"nk_w_qgia":"Ác-hen-ti-na","nk_w_gt":2672.1999999999998}},{"type":"Feature","id":"nhapkhau.2","geometry":{"type":"Point","coordinates":[134.48675913713663,-25.732534427483426]},"geometry_name":"geom","properties":{"objectid":15,"name":"Australia","country":"Australia","english":"Australia","continent":"Oceania","ma":75,"nk_w_qgia":"Ô-xtrây-li-a","nk_w_gt":2424.9000000000001}},{"type":"Feature","id":"nhapkhau.3","geometry":{"type":"Point","coordinates":[14.140033873237329,47.58852907429267]},"geometry_name":"geom","properties":{"objectid":16,"name":"Austria","country":"Austria","english":"Austria","continent":"Europe","ma":51,"nk_w_qgia":"Áo","nk_w_gt":351}},{"type":"Feature","id":"nhapkhau.4","geometry":{"type":"Point","coordinates":[50.56543476017928,26.024843330705288]},"geometry_name":"geom","properties":{"objectid":19,"name":"Bahrain","country":"Bahrain","english":"Bahrain","continent":"Asia","ma":22,"nk_w_qgia":"Ba-ren","nk_w_gt":0E-15}},{"type":"Feature","id":"nhapkhau.5","geometry":{"type":"Point","coordinates":[114.74788230931314,4.521154396324123]},"geometry_name":"geom","properties":{"objectid":20,"name":"Baker Island","country":"Brunei","english":"Brunei","continent":"Asia","ma":1,"nk_w_qgia":"Bru-nây","nk_w_gt":70.5}},{"type":"Feature","id":"nhapkhau.6","geometry":{"type":"Point","coordinates":[90.26967309784149,23.847060682679242]},"geometry_name":"geom","properties":{"objectid":22,"name":"Bangladesh","country":"Bangladesh","english":"Bangladesh","continent":"Asia","ma":16,"nk_w_qgia":"Băng-la-đét","nk_w_gt":0E-15}},{"type":"Feature","id":"nhapkhau.7","geometry":{"type":"Point","coordinates":[28.053623270326938,53.542390455365464]},"geometry_name":"geom","properties":{"objectid":24,"name":"Belarus","country":"Belarus","english":"Belarus","continent":"Europe","ma":32,"nk_w_qgia":"Bê-la-rút","nk_w_gt":92}},{"type":"Feature","id":"nhapkhau.8","geometry":{"type":"Point","coordinates":[4.660828314922446,50.641799637851406]},"geometry_name":"geom","properties":{"objectid":25,"name":"Belgium","country":"Belgium","english":"Belgium","continent":"Europe","ma":53,"nk_w_qgia":"Bỉ","nk_w_gt":476}},{"type":"Feature","id":"nhapkhau.9","geometry":{"type":"Point","coordinates":[-53.079911523638785,-10.767006897303032]},"geometry_name":"geom","properties":{"objectid":35,"name":"Brazil","country":"Brazil","english":"Brazil","continent":"South America","ma":61,"nk_w_qgia":"Bra-xin","nk_w_gt":1722.3}},{"type":"Feature","id":"nhapkhau.10","geometry":{"type":"Point","coordinates":[25.238745052555355,42.76534744470676]},"geometry_name":"geom","properties":{"objectid":38,"name":"Bulgaria","country":"Bulgaria","english":"Bulgaria","continent":"Europe","ma":33,"nk_w_qgia":"Bun-ga-ri","nk_w_gt":171}},{"type":"Feature","id":"nhapkhau.11","geometry":{"type":"Point","coordinates":[96.51351248424281,21.12296505956581]},"geometry_name":"geom","properties":{"objectid":40,"name":"Burma","country":"Myanmar","english":"Myanmar","continent":"Asia","ma":6,"nk_w_qgia":"My-an-ma","nk_w_gt":87}},{"type":"Feature","id":"nhapkhau.12","geometry":{"type":"Point","coordinates":[104.9213495434162,12.707456346819646]},"geometry_name":"geom","properties":{"objectid":42,"name":"Cambodia","country":"Cambodia","english":"Cambodia","continent":"Asia","ma":2,"nk_w_qgia":"Cam-pu-chia","nk_w_gt":725.60000000000002}},{"type":"Feature","id":"nhapkhau.13","geometry":{"type":"Point","coordinates":[-98.25247516601053,61.462754303430756]},"geometry_name":"geom","properties":{"objectid":44,"name":"Canada","country":"Canada","english":"Canada","continent":"North America","ma":58,"nk_w_qgia":"Ca-na-đa","nk_w_gt":395.5}},{"type":"Feature","id":"nhapkhau.14","geometry":{"type":"Point","coordinates":[-71.38419252657665,-37.93669158172252]},"geometry_name":"geom","properties":{"objectid":49,"name":"Chile","country":"Chile","english":"Chile","continent":"South America","ma":62,"nk_w_qgia":"Chi-lê","nk_w_gt":231.69999999999999}},{"type":"Feature","id":"nhapkhau.15","geometry":{"type":"Point","coordinates":[103.83198551548958,36.56316700322924]},"geometry_name":"geom","properties":{"objectid":50,"name":"China","country":"China","english":"China","continent":"Asia","ma":14,"nk_w_qgia":"CHND Trung Hoa","nk_w_gt":50018.800000000003}},{"type":"Feature","id":"nhapkhau.16","geometry":{"type":"Point","coordinates":[33.22951353176496,35.054911915524976]},"geometry_name":"geom","properties":{"objectid":64,"name":"Cyprus","country":"Cyprus","english":"Cyprus","continent":"Asia","ma":28,"nk_w_qgia":"Síp","nk_w_gt":35.600000000000001}},{"type":"Feature","id":"nhapkhau.17","geometry":{"type":"Point","coordinates":[15.334474466980721,49.7391484010545]},"geometry_name":"geom","properties":{"objectid":65,"name":"Czech Republic","country":"Czech Republic","english":"Czech Republic","continent":"Europe","ma":37,"nk_w_qgia":"Cộng hòa Séc","nk_w_gt":104.59999999999999}},{"type":"Feature","id":"nhapkhau.18","geometry":{"type":"Point","coordinates":[-5.553972385094131,7.623291468711471]},"geometry_name":"geom","properties":{"objectid":66,"name":"Côte d'Ivoire","country":"Côte d'Ivoire","english":"Côte d'Ivoire","continent":"Africa","ma":68,"nk_w_qgia":"Cốt-đi-voa (Bờ biển Ngà)","nk_w_gt":703}},{"type":"Feature","id":"nhapkhau.19","geometry":{"type":"Point","coordinates":[10.02723866068046,55.986894663244605]},"geometry_name":"geom","properties":{"objectid":67,"name":"Denmark","country":"Denmark","english":"Denmark","continent":"Europe","ma":40,"nk_w_qgia":"Đan Mạch","nk_w_gt":331.80000000000001}},{"type":"Feature","id":"nhapkhau.20","geometry":{"type":"Point","coordinates":[29.781891272071025,26.561575788340814]},"geometry_name":"geom","properties":{"objectid":72,"name":"Egypt","country":"Egypt","english":"Egypt","continent":"Africa","ma":66,"nk_w_qgia":"Ai Cập","nk_w_gt":0E-15}},{"type":"Feature","id":"nhapkhau.21","geometry":{"type":"Point","coordinates":[26.259530060067135,64.49517483159023]},"geometry_name":"geom","properties":{"objectid":83,"name":"Finland","country":"Finland","english":"Finland","continent":"Europe","ma":45,"nk_w_qgia":"Phần Lan","nk_w_gt":224.80000000000001}},{"type":"Feature","id":"nhapkhau.22","geometry":{"type":"Point","coordinates":[2.5501669736242745,46.5621812418165]},"geometry_name":"geom","properties":{"objectid":84,"name":"France","country":"France","english":"France","continent":"Europe","ma":56,"nk_w_qgia":"Pháp","nk_w_gt":1144.3}},{"type":"Feature","id":"nhapkhau.23","geometry":{"type":"Point","coordinates":[43.512981426963286,42.17865821325621]},"geometry_name":"geom","properties":{"objectid":91,"name":"Georgia","country":"Georgia","english":"Georgia","continent":"Asia","ma":25,"nk_w_qgia":"Gru-di-a","nk_w_gt":0E-15}},{"type":"Feature","id":"nhapkhau.24","geometry":{"type":"Point","coordinates":[10.39239321654143,51.10953875352157]},"geometry_name":"geom","properties":{"objectid":92,"name":"Germany","country":"Germany","english":"Germany","continent":"Europe","ma":52,"nk_w_qgia":"CHLB Đức","nk_w_gt":2850.1999999999998}},{"type":"Feature","id":"nhapkhau.25","geometry":{"type":"Point","coordinates":[22.989137785143704,39.043276731945674]},"geometry_name":"geom","properties":{"objectid":96,"name":"Greece","country":"Greece","english":"Greece","continent":"Europe","ma":48,"nk_w_qgia":"Hy Lạp","nk_w_gt":50.399999999999999}},{"type":"Feature","id":"nhapkhau.26","geometry":{"type":"Point","coordinates":[114.13458210201529,22.380849233976424]},"geometry_name":"geom","properties":{"objectid":109,"name":"Hong Kong","country":"Hong Kong","english":"Hong Kong","continent":"Asia","ma":12,"nk_w_qgia":"ĐKHC Hồng Công (TQ)","nk_w_gt":1497.5999999999999}},{"type":"Feature","id":"nhapkhau.27","geometry":{"type":"Point","coordinates":[19.417911561445425,47.16614588722099]},"geometry_name":"geom","properties":{"objectid":111,"name":"Hungary","country":"Hungary","english":"Hungary","continent":"Europe","ma":34,"nk_w_qgia":"Hung-ga-ri","nk_w_gt":173.19999999999999}},{"type":"Feature","id":"nhapkhau.28","geometry":{"type":"Point","coordinates":[-18.594223758957032,64.98989184102403]},"geometry_name":"geom","properties":{"objectid":112,"name":"Iceland","country":"Iceland","english":"Iceland","continent":"Europe","ma":42,"nk_w_qgia":"Ai-xơ-len","nk_w_gt":0E-15}},{"type":"Feature","id":"nhapkhau.29","geometry":{"type":"Point","coordinates":[79.62692516422698,22.869553246504214]},"geometry_name":"geom","properties":{"objectid":113,"name":"India","country":"India","english":"India","continent":"Asia","ma":15,"nk_w_qgia":"Ấn Độ","nk_w_gt":2745.5}},{"type":"Feature","id":"nhapkhau.30","geometry":{"type":"Point","coordinates":[117.27828274083629,-2.227005906145631]},"geometry_name":"geom","properties":{"objectid":114,"name":"Indonesia","country":"Indonesia","english":"Indonesia","continent":"Asia","ma":3,"nk_w_qgia":"In-đô-nê-xi-a","nk_w_gt":2990.5999999999999}},{"type":"Feature","id":"nhapkhau.31","geometry":{"type":"Point","coordinates":[54.30499350844228,32.560455680495565]},"geometry_name":"geom","properties":{"objectid":115,"name":"Iran","country":"Iran","english":"Iran","continent":"Asia","ma":17,"nk_w_qgia":"I-ran","nk_w_gt":0E-15}},{"type":"Feature","id":"nhapkhau.32","geometry":{"type":"Point","coordinates":[-8.152605626960545,53.18068670380655]},"geometry_name":"geom","properties":{"objectid":117,"name":"Ireland","country":"Ireland","english":"Ireland","continent":"Europe","ma":41,"nk_w_qgia":"Ai-len","nk_w_gt":1026.8}},{"type":"Feature","id":"nhapkhau.33","geometry":{"type":"Point","coordinates":[35.01215371213509,31.43797021472829]},"geometry_name":"geom","properties":{"objectid":119,"name":"Israel","country":"Israel","english":"Israel","continent":"Asia","ma":26,"nk_w_qgia":"I-xra-en","nk_w_gt":688.29999999999995}},{"type":"Feature","id":"nhapkhau.34","geometry":{"type":"Point","coordinates":[12.075003647834318,42.78890579254485]},"geometry_name":"geom","properties":{"objectid":120,"name":"Italy","country":"Italy","english":"Italy","continent":"Europe","ma":49,"nk_w_qgia":"I-ta-li-a","nk_w_gt":1427}},{"type":"Feature","id":"nhapkhau.35","geometry":{"type":"Point","coordinates":[137.963020005516,37.540008806943355]},"geometry_name":"geom","properties":{"objectid":122,"name":"Japan","country":"Japan","english":"Japan","continent":"Asia","ma":13,"nk_w_qgia":"Nhật Bản","nk_w_gt":15064}},{"type":"Feature","id":"nhapkhau.36","geometry":{"type":"Point","coordinates":[36.788344769722045,31.249563538477602]},"geometry_name":"geom","properties":{"objectid":126,"name":"Jordan","country":"Jordan","english":"Jordan","continent":"Asia","ma":30,"nk_w_qgia":"Gioóc-đa-ni","nk_w_gt":0E-15}},{"type":"Feature","id":"nhapkhau.37","geometry":{"type":"Point","coordinates":[47.613472611753046,29.3543431998687]},"geometry_name":"geom","properties":{"objectid":132,"name":"Kuwait","country":"Kuwait","english":"Kuwait","continent":"Asia","ma":24,"nk_w_qgia":"Cô-Oét","nk_w_gt":110.40000000000001}},{"type":"Feature","id":"nhapkhau.38","geometry":{"type":"Point","coordinates":[103.7741056784538,18.495135856432448]},"geometry_name":"geom","properties":{"objectid":134,"name":"Laos","country":"Laos","english":"Laos","continent":"Asia","ma":4,"nk_w_qgia":"Lào","nk_w_gt":345.69999999999999}},{"type":"Feature","id":"nhapkhau.39","geometry":{"type":"Point","coordinates":[-9.307184738389388,6.447556604042445]},"geometry_name":"geom","properties":{"objectid":138,"name":"Liberia","country":"Liberia","english":"Liberia","continent":"Africa","ma":69,"nk_w_qgia":"Li-bê-ria","nk_w_gt":0E-15}},{"type":"Feature","id":"nhapkhau.40","geometry":{"type":"Point","coordinates":[9.554016981990527,47.14516838711161]},"geometry_name":"geom","properties":{"objectid":140,"name":"Liechtenstein","country":"Liechtenstein","english":"Liechtenstein","continent":"Europe","ma":55,"nk_w_qgia":"Lechtensten","nk_w_gt":0E-15}},{"type":"Feature","id":"nhapkhau.41","geometry":{"type":"Point","coordinates":[109.70912760691483,3.7908509886769957]},"geometry_name":"geom","properties":{"objectid":147,"name":"Malaysia","country":"Malaysia","english":"Malaysia","continent":"Asia","ma":5,"nk_w_qgia":"Ma-lai-xi-a","nk_w_gt":5171.3000000000002}},{"type":"Feature","id":"nhapkhau.42","geometry":{"type":"Point","coordinates":[-3.5244213739967263,17.355290088580936]},"geometry_name":"geom","properties":{"objectid":149,"name":"Mali","country":"Mali","english":"Mali","continent":"Africa","ma":70,"nk_w_qgia":"Ma-li","nk_w_gt":0E-15}},{"type":"Feature","id":"nhapkhau.43","geometry":{"type":"Point","coordinates":[-102.53564338387693,23.940580737404]},"geometry_name":"geom","properties":{"objectid":156,"name":"Mexico","country":"Mexico","english":"Mexico","continent":"North America","ma":63,"nk_w_qgia":"Mê-hi-cô","nk_w_gt":483.89999999999998}},{"type":"Feature","id":"nhapkhau.44","geometry":{"type":"Point","coordinates":[5.620795857891258,52.24973677284603]},"geometry_name":"geom","properties":{"objectid":169,"name":"Netherlands","country":"Netherlands","english":"Netherlands","continent":"Europe","ma":54,"nk_w_qgia":"Hà Lan","nk_w_gt":676.89999999999998}},{"type":"Feature","id":"nhapkhau.45","geometry":{"type":"Point","coordinates":[171.47771767715386,-41.80584344653699]},"geometry_name":"geom","properties":{"objectid":171,"name":"New Zealand","country":"New Zealand","english":"New Zealand","continent":"Oceania","ma":74,"nk_w_qgia":"Niu Di-Lân","nk_w_gt":356.89999999999998}},{"type":"Feature","id":"nhapkhau.46","geometry":{"type":"Point","coordinates":[8.092328573278097,9.585294158978177]},"geometry_name":"geom","properties":{"objectid":174,"name":"Nigeria","country":"Nigeria","english":"Nigeria","continent":"Africa","ma":72,"nk_w_qgia":"Ni-giê-ri-a","nk_w_gt":0E-15}},{"type":"Feature","id":"nhapkhau.47","geometry":{"type":"Point","coordinates":[14.083090150156035,64.46924151617222]},"geometry_name":"geom","properties":{"objectid":179,"name":"Norway","country":"Norway","english":"Norway","continent":"Europe","ma":44,"nk_w_qgia":"Na Uy","nk_w_gt":263.69999999999999}},{"type":"Feature","id":"nhapkhau.48","geometry":{"type":"Point","coordinates":[69.39546298412276,29.969664074311826]},"geometry_name":"geom","properties":{"objectid":181,"name":"Pakistan","country":"Pakistan","english":"Pakistan","continent":"Asia","ma":18,"nk_w_qgia":"Pa-ki-xtan","nk_w_gt":128.80000000000001}},{"type":"Feature","id":"nhapkhau.49","geometry":{"type":"Point","coordinates":[-80.10905869443279,8.512792305006197]},"geometry_name":"geom","properties":{"objectid":185,"name":"Panama","country":"Panama","english":"Panama","continent":"North America","ma":64,"nk_w_qgia":"Pa-na-ma","nk_w_gt":0E-15}},{"type":"Feature","id":"nhapkhau.50","geometry":{"type":"Point","coordinates":[-74.36120010627111,-9.172653676777312]},"geometry_name":"geom","properties":{"objectid":188,"name":"Peru","country":"Peru","english":"Peru","continent":"South America","ma":65,"nk_w_qgia":"Pê-ru","nk_w_gt":76.5}},{"type":"Feature","id":"nhapkhau.51","geometry":{"type":"Point","coordinates":[122.86812371675458,11.739252526571708]},"geometry_name":"geom","properties":{"objectid":189,"name":"Philippines","country":"Philippines","english":"Philippines","continent":"Asia","ma":7,"nk_w_qgia":"Phi-li-pin","nk_w_gt":1060.2}},{"type":"Feature","id":"nhapkhau.52","geometry":{"type":"Point","coordinates":[19.40072788981166,52.12411545085196]},"geometry_name":"geom","properties":{"objectid":191,"name":"Poland","country":"Poland","english":"Poland","continent":"Europe","ma":31,"nk_w_qgia":"Ba Lan","nk_w_gt":191.69999999999999}},{"type":"Feature","id":"nhapkhau.53","geometry":{"type":"Point","coordinates":[-8.531441000774533,39.593066668014536]},"geometry_name":"geom","properties":{"objectid":192,"name":"Portugal","country":"Portugal","english":"Portugal","continent":"Europe","ma":47,"nk_w_qgia":"Bồ Đào Nha","nk_w_gt":50.600000000000001}},{"type":"Feature","id":"nhapkhau.54","geometry":{"type":"Point","coordinates":[51.19856476373611,25.292539619847396]},"geometry_name":"geom","properties":{"objectid":194,"name":"Qatar","country":"Qatar","english":"Qatar","continent":"Asia","ma":27,"nk_w_qgia":"Qua-ta","nk_w_gt":181.30000000000001}},{"type":"Feature","id":"nhapkhau.55","geometry":{"type":"Point","coordinates":[24.985861269247682,45.843190714758876]},"geometry_name":"geom","properties":{"objectid":196,"name":"Romania","country":"Romania","english":"Romania","continent":"Europe","ma":36,"nk_w_qgia":"Ru-ma-ni","nk_w_gt":168.40000000000001}},{"type":"Feature","id":"nhapkhau.56","geometry":{"type":"Point","coordinates":[96.7111323331441,61.990381200694564]},"geometry_name":"geom","properties":{"objectid":197,"name":"Russia","country":"Russia","english":"Russia","continent":"Europe","ma":35,"nk_w_qgia":"Liên Bang Nga","nk_w_gt":1131}},{"type":"Feature","id":"nhapkhau.57","geometry":{"type":"Point","coordinates":[44.58609498326508,24.010138330089536]},"geometry_name":"geom","properties":{"objectid":209,"name":"Saudi Arabia","country":"Saudi Arabia","english":"Saudi Arabia","continent":"Asia","ma":21,"nk_w_qgia":"A-rập Xê-út","nk_w_gt":1165.3}},{"type":"Feature","id":"nhapkhau.58","geometry":{"type":"Point","coordinates":[-14.474474425776748,14.361482404155396]},"geometry_name":"geom","properties":{"objectid":210,"name":"Senegal","country":"Senegal","english":"Senegal","continent":"Africa","ma":71,"nk_w_qgia":"Nam Phi","nk_w_gt":149.5}},{"type":"Feature","id":"nhapkhau.59","geometry":{"type":"Point","coordinates":[103.8202851889298,1.3611338657690908]},"geometry_name":"geom","properties":{"objectid":214,"name":"Singapore","country":"Singapore","english":"Singapore","continent":"Asia","ma":8,"nk_w_qgia":"Xin-ga-po","nk_w_gt":4762.8000000000002}},{"type":"Feature","id":"nhapkhau.60","geometry":{"type":"Point","coordinates":[19.487011961723265,48.70656579560219]},"geometry_name":"geom","properties":{"objectid":216,"name":"Slovakia","country":"Slovakia","english":"Slovakia","continent":"Europe","ma":38,"nk_w_qgia":"Slô-va-ki-a","nk_w_gt":32.299999999999997}},{"type":"Feature","id":"nhapkhau.61","geometry":{"type":"Point","coordinates":[25.093587173667906,-29.00352396918087]},"geometry_name":"geom","properties":{"objectid":220,"name":"South Africa","country":"South Africa","english":"South Africa","continent":"Africa","ma":71,"nk_w_qgia":"Nam Phi","nk_w_gt":149.5}},{"type":"Feature","id":"nhapkhau.62","geometry":{"type":"Point","coordinates":[127.80651085232307,36.35594916012263]},"geometry_name":"geom","properties":{"objectid":222,"name":"South Korea","country":"South Korea","english":"South Korea","continent":"Asia","ma":11,"nk_w_qgia":"Hàn Quốc","nk_w_gt":32162.900000000001}},{"type":"Feature","id":"nhapkhau.63","geometry":{"type":"Point","coordinates":[-3.643761267137835,40.23025157266324]},"geometry_name":"geom","properties":{"objectid":223,"name":"Spain","country":"Spain","english":"Spain","continent":"Europe","ma":50,"nk_w_qgia":"Tây Ban Nha","nk_w_gt":451.39999999999998}},{"type":"Feature","id":"nhapkhau.64","geometry":{"type":"Point","coordinates":[80.7009801565228,7.629607446868182]},"geometry_name":"geom","properties":{"objectid":225,"name":"Sri Lanka","country":"Sri Lanka","english":"Sri Lanka","continent":"Asia","ma":20,"nk_w_qgia":"Xri-lan-ka","nk_w_gt":0E-15}},{"type":"Feature","id":"nhapkhau.65","geometry":{"type":"Point","coordinates":[16.759358158506732,62.776738056422374]},"geometry_name":"geom","properties":{"objectid":230,"name":"Sweden","country":"Sweden","english":"Sweden","continent":"Europe","ma":46,"nk_w_qgia":"Thụy Điển","nk_w_gt":133.09999999999999}},{"type":"Feature","id":"nhapkhau.66","geometry":{"type":"Point","coordinates":[8.22645558281954,46.80614977824859]},"geometry_name":"geom","properties":{"objectid":231,"name":"Switzerland","country":"Switzerland","english":"Switzerland","continent":"Europe","ma":57,"nk_w_qgia":"Thụy Sĩ","nk_w_gt":505.89999999999998}},{"type":"Feature","id":"nhapkhau.67","geometry":{"type":"Point","coordinates":[120.95322360471091,23.751538544809073]},"geometry_name":"geom","properties":{"objectid":233,"name":"Taiwan","country":"Taiwan","english":"Taiwan","continent":"Asia","ma":10,"nk_w_qgia":"Đài Loan","nk_w_gt":11234.700000000001}},{"type":"Feature","id":"nhapkhau.68","geometry":{"type":"Point","coordinates":[101.01784879007646,15.107291635643229]},"geometry_name":"geom","properties":{"objectid":236,"name":"Thailand","country":"Thailand","english":"Thailand","continent":"Asia","ma":9,"nk_w_qgia":"Thái Lan","nk_w_gt":8849.3999999999996}},{"type":"Feature","id":"nhapkhau.69","geometry":{"type":"Point","coordinates":[9.578594398070429,34.12027478540835]},"geometry_name":"geom","properties":{"objectid":243,"name":"Tunisia","country":"Tunisia","english":"Tunisia","continent":"Africa","ma":67,"nk_w_qgia":"Tuy-ni-di","nk_w_gt":8.699999999999999}},{"type":"Feature","id":"nhapkhau.70","geometry":{"type":"Point","coordinates":[35.17365752421072,39.0614111381456]},"geometry_name":"geom","properties":{"objectid":244,"name":"Turkey","country":"Turkey","english":"Turkey","continent":"Asia","ma":29,"nk_w_qgia":"Thổ Nhĩ Kỳ","nk_w_gt":171.40000000000001}},{"type":"Feature","id":"nhapkhau.71","geometry":{"type":"Point","coordinates":[31.41060261782334,49.00878457372413]},"geometry_name":"geom","properties":{"objectid":249,"name":"Ukraine","country":"Ukraine","english":"Ukraine","continent":"Europe","ma":39,"nk_w_qgia":"U-crai-na","nk_w_gt":75.900000000000006}},{"type":"Feature","id":"nhapkhau.72","geometry":{"type":"Point","coordinates":[54.33089832329917,23.913171643407633]},"geometry_name":"geom","properties":{"objectid":250,"name":"United Arab Emirates","country":"United Arab Emirates","english":"United Arab Emirates","continent":"Asia","ma":23,"nk_w_qgia":"Các Tiểu vương quốc Ả-rập Thống nhất","nk_w_gt":450.39999999999998}},{"type":"Feature","id":"nhapkhau.73","geometry":{"type":"Point","coordinates":[-2.8700510503801837,54.13869094764259]},"geometry_name":"geom","properties":{"objectid":251,"name":"United Kingdom","country":"United Kingdom","english":"United Kingdom","continent":"Europe","ma":43,"nk_w_qgia":"Vương quốc Anh","nk_w_gt":724.39999999999998}},{"type":"Feature","id":"nhapkhau.74","geometry":{"type":"Point","coordinates":[-112.9818136657272,45.71839808477634]},"geometry_name":"geom","properties":{"objectid":252,"name":"United States","country":"United States","english":"United States","continent":"North America","ma":59,"nk_w_qgia":"Hoa Kỳ","nk_w_gt":9701.6000000000004}},{"type":"Feature","id":"nhapkhau.75","geometry":{"type":"Point","coordinates":[63.36515501191607,41.629950289547956]},"geometry_name":"geom","properties":{"objectid":254,"name":"Uzbekistan","country":"Uzbekistan","english":"Uzbekistan","continent":"Asia","ma":19,"nk_w_qgia":"U-dơ-bê-ki-xtan","nk_w_gt":0E-15}},{"type":"Feature","id":"nhapkhau.76","geometry":{"type":"Point","coordinates":[27.79429092878759,-13.457554690625967]},"geometry_name":"geom","properties":{"objectid":263,"name":"Zambia","country":"Zambia","english":"Zambia","continent":"Africa","ma":73,"nk_w_qgia":"Dăm-bi-a","nk_w_gt":0E-15}}],"crs":{"type":"name","properties":{"name":"urn:ogc:def:crs:EPSG::4326"}}}